City_ID,City,Lat,Lng,Max Temp,Humidity,Cloudiness,Wind Speed,Country,Date
0,constantia,44.1833,28.65,18.38,72,2,4.41,RO,1722569286
1,wailua homesteads,22.0669,-159.378,26.44,70,0,4.63,US,1722569286
2,theodore,30.5477,-88.1753,29.94,82,40,2.57,US,1722569286
3,iskateley,67.6803,53.1512,16.66,82,50,6.04,RU,1722569286
4,port-aux-francais,-49.35,70.2167,4.86,97,100,15.34,TF,1722569286
5,bilibino,68.0546,166.4372,10.76,41,8,3.6,RU,1722569286
6,pangai,-19.8,-174.35,25.06,69,40,6.17,TO,1722569286
7,bredasdorp,-34.5322,20.0403,7.46,91,95,2.49,ZA,1722569286
8,minas de marcona,-15.2119,-75.1103,11.62,87,61,2.74,PE,1722569287
9,chichiriviche,10.9333,-68.2772,27.53,87,1,5.81,VE,1722569287
10,puerto ayora,-0.7393,-90.3518,19.9,88,13,3.62,EC,1722569287
11,albany,42.6001,-73.9662,23.23,63,31,1.67,US,1722568940
12,port saint john's,-31.6229,29.5448,16.28,64,82,1.65,ZA,1722569287
13,uturoa,-16.7333,-151.4333,24.0,61,94,6.39,PF,1722569287
14,sovetskaya gavan',48.9723,140.2878,17.05,92,100,4.08,RU,1722569287
15,ushuaia,-54.8,-68.3,1.81,87,75,1.54,AR,1722569287
16,grytviken,-54.2811,-36.5092,-2.17,88,100,8.87,GS,1722569287
17,waitangi,-43.9535,-176.5597,8.23,80,90,2.68,NZ,1722569288
18,benguela,-12.5763,13.4055,18.81,87,15,1.61,AO,1722569288
19,sidareja,-7.4846,108.7923,28.46,74,75,1.9,ID,1722569288
20,port elizabeth,-33.918,25.5701,12.4,89,0,5.14,ZA,1722569288
21,ancud,-41.8697,-73.8203,9.45,91,100,7.38,CL,1722569288
22,santa marta de ortigueira,43.6833,-7.85,17.92,100,42,2.52,ES,1722569288
23,tolanaro,-25.0319,46.9987,18.04,82,20,1.03,MG,1722569288
24,adamstown,-25.066,-130.1015,19.76,86,100,3.79,PN,1722569288
25,makedonski brod,41.5136,21.2153,16.59,42,0,1.25,MK,1722569288
26,shimoda,34.6667,138.95,31.2,69,28,4.3,JP,1722569230
27,sao vicente,-23.9631,-46.3919,20.15,26,0,1.0,BR,1722569180
28,bardai,11.65,7.2333,21.5,93,99,3.39,NG,1722569289
29,sao felix do xingu,-6.6447,-51.995,26.99,40,100,0.49,BR,1722569290
30,vorkuta,67.5,64.0,19.82,69,81,4.58,RU,1722569290
31,olonkinbyen,70.9221,-8.7187,5.39,96,98,8.73,SJ,1722569290
32,praia da vitoria,38.7333,-27.0667,22.64,88,20,1.68,PT,1722569290
33,belyy yar,53.6039,91.3903,23.94,60,0,1.0,RU,1722569232
34,port mathurin,-19.6833,63.4167,22.29,75,0,3.74,MU,1722569291
35,chulakkurgan,43.765,69.1814,34.32,10,0,4.42,KZ,1722569291
36,fraile pintado,-23.9408,-64.7994,17.78,54,0,1.42,AR,1722569291
37,talnakh,69.4865,88.3972,18.91,57,94,1.26,RU,1722569291
38,suva,-18.1416,178.4415,26.71,74,40,3.09,FJ,1722569291
39,lefkada,38.8275,20.7019,23.88,83,0,0.0,GR,1722569291
40,lompoc,34.6391,-120.4579,17.14,90,100,3.6,US,1722569076
41,iqaluit,63.7506,-68.5145,4.85,75,75,2.06,CA,1722569291
42,bethel,41.3712,-73.414,25.5,89,0,0.0,US,1722569292
43,copala,16.65,-98.9833,26.54,84,100,0.96,MX,1722569233
44,blackmans bay,-43.0167,147.3167,12.07,68,15,0.45,AU,1722569292
45,felege neway,6.3,36.8833,16.03,92,99,0.67,ET,1722569292
46,ridder,50.355,83.5133,24.25,49,0,1.21,KZ,1722569292
47,thompson,55.7435,-97.8558,19.09,59,40,3.09,CA,1722569293
48,fada,7.25,4.0667,21.47,100,99,0.61,NG,1722569293
49,kiunga,-6.1219,141.2906,25.81,93,83,2.04,PG,1722569293
50,nadym,65.5333,72.5167,21.73,51,10,4.09,RU,1722569294
51,vyselki,45.5794,39.6597,17.62,67,1,2.88,RU,1722569294
52,alotau,-10.3069,150.4462,23.52,94,100,2.55,PG,1722569294
53,utrik,11.2278,169.8474,28.71,73,23,3.55,MH,1722569008
54,ebon,4.582,168.6964,28.44,73,82,2.28,MH,1722569294
55,port lincoln,-34.7333,135.8667,13.71,72,99,4.41,AU,1722569294
56,yellowknife,62.456,-114.3525,14.12,61,40,3.09,CA,1722569294
57,puerto natales,-51.7236,-72.4875,1.94,97,100,1.43,CL,1722569294
58,acarau,-2.8856,-40.12,25.44,79,17,8.32,BR,1722569294
59,la passe,45.5549,-0.8967,17.13,83,0,3.34,FR,1722569295
60,uniao dos palmares,-9.1628,-36.0319,22.77,94,7,1.42,BR,1722569236
61,axim,4.8699,-2.2405,23.39,91,98,2.92,GH,1722569236
62,hermanus,-34.4187,19.2345,7.11,84,66,2.52,ZA,1722569295
63,east london,-33.0153,27.9116,12.52,66,0,2.06,ZA,1722569295
64,nadi,-17.8,177.4167,27.0,69,40,6.17,FJ,1722569295
65,puerto baquerizo moreno,-0.9,-89.6,19.39,89,49,4.08,EC,1722569296
66,puerto el triunfo,13.2833,-88.55,27.76,77,93,1.2,SV,1722569015
67,itapuranga,-15.5622,-49.9486,19.44,43,1,1.9,BR,1722569296
68,kiffa,16.6166,-11.4045,32.63,50,100,9.12,MR,1722569297
69,broome,42.2506,-75.833,24.15,90,80,0.72,US,1722569058
70,sitka,57.0531,-135.33,15.94,67,75,3.09,US,1722569297
71,klaksvik,62.2266,-6.589,12.51,99,100,9.41,FO,1722569297
72,thinadhoo,0.5333,72.9333,28.45,76,73,3.69,MV,1722569238
73,ha'il,27.5219,41.6907,28.01,26,0,2.06,SA,1722569297
74,orda,57.1951,56.9091,15.31,93,18,3.96,RU,1722569297
75,dryden,49.7833,-92.7503,24.16,60,20,4.12,CA,1722569297
76,talcahuano,-36.7167,-73.1167,11.82,94,100,6.17,CL,1722569297
77,invercargill,-46.4,168.35,8.63,67,33,2.23,NZ,1722569298
78,ilulissat,69.2167,-51.1,3.01,93,32,0.0,GL,1722569298
79,jamestown,42.097,-79.2353,23.8,87,0,1.54,US,1722569133
80,tura,25.5198,90.2201,23.67,98,100,2.85,IN,1722569298
81,pacific grove,36.6177,-121.9166,18.55,93,75,2.24,US,1722569298
82,aykhal,66.0,111.5,16.09,42,73,3.64,RU,1722569298
83,edinburgh of the seven seas,-37.0676,-12.3116,11.28,57,100,15.19,SH,1722569298
84,arraial do cabo,-22.9661,-42.0278,21.64,73,0,7.5,BR,1722569298
85,la maddalena,41.2142,9.4083,27.03,53,0,7.17,IT,1722569298
86,yarmouth,41.7057,-70.2286,25.07,83,0,3.6,US,1722569202
87,qaqortoq,60.7167,-46.0333,5.38,87,28,1.21,GL,1722569299
88,tiksi,71.6872,128.8694,6.36,55,58,2.78,RU,1722569299
89,pionerskiy,54.9508,20.2275,12.91,69,14,2.94,RU,1722569299
90,bathsheba,13.2167,-59.5167,27.34,89,20,3.09,BB,1722569299
91,ipameri,-17.7219,-48.1597,22.14,41,53,3.06,BR,1722569300
92,kavaratti,10.5669,72.642,27.87,82,100,7.23,IN,1722569300
93,yanykurgan,43.915,67.2481,30.59,19,0,4.18,KZ,1722569300
94,las tablas,7.7667,-80.2833,23.99,99,94,2.06,PA,1722569300
95,west island,-12.1568,96.8225,26.99,78,75,4.63,CC,1722569300
96,togur,58.3631,82.8265,21.95,74,94,2.31,RU,1722569301
97,hamilton,39.1834,-84.5333,23.02,93,75,2.57,US,1722569058
98,marsh harbour,26.5412,-77.0636,28.95,75,7,5.99,BS,1722569301
99,ormara,25.2088,64.6357,27.91,88,100,5.34,PK,1722569301
100,margaret river,-33.95,115.0667,12.42,66,100,2.05,AU,1722569301
101,laela,-8.5667,32.05,10.76,64,0,1.04,TZ,1722569302
102,isafjordur,66.0755,-23.124,5.25,94,100,5.08,IS,1722569302
103,pampa del infierno,-26.5052,-61.1744,30.35,26,1,8.14,AR,1722569302
104,wainwright,52.839,-110.8572,21.71,46,0,2.95,CA,1722569302
105,fortuna,40.5982,-124.1573,16.63,89,44,0.45,US,1722569302
106,zhangye,38.9342,100.4517,21.69,53,100,0.43,CN,1722569302
107,gargalianoi,37.0667,21.6333,24.09,76,0,4.05,GR,1722569302
108,lichtenburg,-26.152,26.1597,10.82,72,4,9.04,ZA,1722569302
109,carnarvon,-24.8667,113.6333,19.02,49,61,7.3,AU,1722569303
110,hawaiian paradise park,19.5933,-154.9731,28.18,71,0,4.12,US,1722569303
111,launceston,-41.45,147.1667,12.86,71,75,2.57,AU,1722569303
112,flying fish cove,-10.4217,105.6791,26.82,73,40,6.17,CX,1722569303
113,hobyo,5.3505,48.5268,24.59,81,87,11.32,SO,1722569303
114,sirte,31.2089,16.5887,25.37,71,0,0.42,LY,1722569303
115,leh,34.1667,77.5833,15.19,57,93,1.25,IN,1722569303
116,saipan,15.1355,145.701,31.39,74,100,4.12,MP,1722569303
117,dalandzadgad,43.5708,104.425,22.79,48,3,5.6,MN,1722569303
118,plastun,44.7561,136.2939,27.83,79,87,2.0,RU,1722569304
119,yelizovo,53.1873,158.3805,26.08,50,40,3.0,RU,1722569304
120,crane,31.3974,-102.3501,32.04,31,0,8.47,US,1722569304
121,acapulco de juarez,16.8634,-99.8901,25.9,78,100,4.63,MX,1722569040
122,kodiak,57.79,-152.4072,18.73,48,0,3.6,US,1722569304
123,queenstown,-31.8976,26.8753,9.14,88,73,1.43,ZA,1722569304
124,papatowai,-46.5619,169.4708,8.54,64,91,1.82,NZ,1722569305
125,takoradi,4.8845,-1.7554,23.32,92,100,3.34,GH,1722569306
126,naze,28.3667,129.4833,31.51,69,34,3.05,JP,1722569306
127,krasnyy chikoy,50.3643,108.7512,18.53,90,100,0.94,RU,1722569306
128,atafu village,-8.5421,-172.5159,27.83,72,70,8.05,TK,1722569174
129,sinabang,2.4803,96.3801,29.84,65,97,0.35,ID,1722569306
130,cockburn town,21.4612,-71.1419,28.23,81,99,8.76,TC,1722569306
131,alofi,-19.0595,-169.9187,25.94,61,75,5.14,NU,1722569306
132,mata-utu,-13.2816,-176.1745,26.93,70,99,6.26,WF,1722569306
133,petawawa,45.9001,-77.3328,20.99,87,20,1.54,CA,1722569306
134,governador valadares,-18.8511,-41.9494,18.67,76,0,1.47,BR,1722569083
135,brisas de zicatela,15.8369,-97.0419,27.72,82,100,2.86,MX,1722569307
136,zheleznogorsk-ilimskiy,56.5768,104.1217,20.24,58,48,2.61,RU,1722569307
137,narok,-1.0783,35.8601,12.66,84,59,1.83,KE,1722569307
138,labrador city,52.9463,-66.9114,16.77,66,0,4.92,CA,1722569308
139,avarua,-21.2078,-159.775,23.03,56,100,1.54,CK,1722569308
140,gadzhiyevo,69.2551,33.3362,10.41,95,100,4.21,RU,1722569308
141,whitehorse,60.7161,-135.0538,18.43,47,75,6.17,CA,1722569308
142,suleja,9.1758,7.1808,23.55,97,100,2.01,NG,1722569309
143,venilale,-8.6431,126.378,27.09,51,6,1.71,TL,1722569309
144,remire-montjoly,4.9167,-52.2667,25.02,94,0,0.51,GF,1722569309
145,alice springs,-23.7,133.8833,22.75,15,20,2.57,AU,1722569309
146,waingapu,-9.6567,120.2641,29.0,62,100,5.97,ID,1722569138
147,inhambane,-23.865,35.3833,18.22,79,0,2.29,MZ,1722569309
148,asosa,10.0667,34.5333,15.5,89,100,2.03,ET,1722569309
149,betio village,1.358,172.9211,31.02,68,2,3.52,KI,1722569309
150,akhty,41.4597,47.7312,16.25,85,99,1.15,RU,1722569309
151,vorgashor,67.5833,63.95,19.42,71,85,4.64,RU,1722569310
152,ust-nera,64.5667,143.2,7.61,81,100,2.74,RU,1722569310
153,georgetown,5.4112,100.3354,32.96,58,20,2.06,MY,1722569256
154,longyearbyen,78.2186,15.6401,10.91,87,0,1.03,SJ,1722569310
155,selfoss,63.9331,-20.9971,7.13,89,35,4.54,IS,1722569310
156,guarapari,-20.6667,-40.4975,20.5,69,53,1.11,BR,1722569310
157,st. john's,47.5649,-52.7093,20.99,92,20,8.23,CA,1722569310
158,corning,42.1428,-77.0547,23.76,87,0,0.0,US,1722569310
159,novy bydzov,50.2415,15.4908,19.97,94,100,1.28,CZ,1722569310
160,namibe,-15.1961,12.1522,16.2,92,7,2.16,AO,1722569118
161,prieska,-29.6641,22.7474,8.74,28,0,3.53,ZA,1722569311
162,changji,44.0167,87.3167,33.44,21,0,3.0,CN,1722569311
163,port blair,11.6667,92.75,28.02,89,100,3.6,IN,1722569311
164,badger,64.8,-147.5333,13.14,82,100,3.09,US,1722569311
165,new norfolk,-42.7826,147.0587,12.72,52,22,1.55,AU,1722569311
166,novovarshavka,54.1721,74.6946,23.56,67,83,3.04,RU,1722569311
167,codrington,-38.2667,141.9667,11.89,58,100,8.46,AU,1722569311
168,tazovsky,67.4667,78.7,17.21,78,57,4.06,RU,1722569311
169,kimbe,-5.5502,150.1429,32.49,56,71,1.46,PG,1722569312
170,wellington,-41.2866,174.7756,10.03,74,20,9.26,NZ,1722569312
171,grand-lahou,5.1367,-5.0242,23.16,93,98,3.7,CI,1722569312
172,daxi,24.8837,121.2904,34.26,77,5,3.21,TW,1722569312
173,ribeira grande,38.5167,-28.7,22.99,77,12,2.65,PT,1722569312
174,fort mcmurray,56.7268,-111.381,21.77,49,0,3.6,CA,1722569312
175,oranjemund,-28.55,16.4333,9.98,87,0,3.76,NA,1722569312
176,nova vicosa,-17.8919,-39.3719,23.21,77,51,6.36,BR,1722569312
177,lagoa,39.05,-27.9833,23.08,78,96,3.79,PT,1722569312
178,zell am see,47.3256,12.7944,18.33,58,100,2.69,AT,1722569312
179,saldanha,-33.0117,17.9442,6.03,84,33,2.61,ZA,1722569313
180,miki,34.8,134.9833,32.76,48,68,3.71,JP,1722569313
181,portoferraio,42.8115,10.3146,25.65,94,0,3.6,IT,1722569313
182,pacasmayo,-7.4006,-79.5714,16.93,90,6,3.67,PE,1722569313
183,mubi,10.2676,13.2644,20.95,93,100,0.84,NG,1722569313
184,riva del garda,45.8858,10.8412,22.01,82,4,2.79,IT,1722569314
185,udachny,66.4167,112.4,16.32,41,7,2.76,RU,1722569314
186,bandon,51.7469,-8.7425,16.77,98,88,6.44,IE,1722569314
187,maunabo,18.0072,-65.8993,27.08,97,73,3.58,PR,1722569315
188,colonia,50.9333,6.95,18.75,89,96,1.39,DE,1722569315
189,zelenogorskiy,55.0333,87.0,23.05,69,34,1.27,RU,1722569315
190,adrar,20.5022,-10.0711,33.57,9,0,3.33,MR,1722569315
191,khovd,48.0056,91.6419,22.25,32,38,1.26,MN,1722569315
192,tocopilla,-22.092,-70.1979,16.05,76,6,1.89,CL,1722569315
193,kapren,25.4167,76.0667,26.89,84,100,1.21,IN,1722569315
194,polyarnyy,69.1989,33.4478,10.3,95,99,4.07,RU,1722569316
195,staryye ozinki,51.1786,49.6769,20.32,51,67,3.58,RU,1722569316
196,ashland,40.8167,-82.2665,21.98,97,100,2.62,US,1722569316
197,mount gambier,-37.8333,140.7667,12.78,51,100,5.74,AU,1722569316
198,dawei,14.0833,98.2,27.39,82,100,3.18,MM,1722569316
199,island harbour,50.724,-1.2758,17.74,76,0,0.89,GB,1722569316
200,yongchuan,29.3514,105.8947,30.99,66,0,2.6,CN,1722569316
201,auki,-8.7676,160.7034,29.37,69,73,1.79,SB,1722569316
202,hithadhoo,-0.6,73.0833,28.68,75,83,4.69,MV,1722569316
203,stanley,54.868,-1.6985,11.77,95,0,1.54,GB,1722569317
204,posse,-14.0931,-46.3694,20.35,53,0,5.08,BR,1722569317
205,chernyshevskiy,63.0128,112.4714,17.28,42,1,2.18,RU,1722569317
206,xam nua,20.4197,104.0439,19.94,100,100,1.23,LA,1722569317
207,pahrump,36.2083,-115.9839,35.7,25,68,1.34,US,1722569317
208,beylikova,39.6869,31.2056,16.96,77,0,0.89,TR,1722569317
209,ostrovskoye,57.8057,42.2433,14.03,95,99,1.95,RU,1722569317
210,mejit,10.2753,170.8646,28.81,69,36,2.75,MH,1722569317
211,sisimiut,66.9395,-53.6735,9.54,64,12,2.4,GL,1722569319
212,tralee,52.2704,-9.7026,15.67,98,98,2.47,IE,1722569319
213,kentville,45.0835,-64.4988,21.14,95,96,1.54,CA,1722569122
214,lebu,-37.6167,-73.65,10.97,92,100,6.04,CL,1722569319
215,vadso,70.0744,29.7487,12.49,94,100,7.72,NO,1722569319
216,marsabit,2.3284,37.9899,15.41,81,90,7.17,KE,1722569319
217,nicoya,10.1483,-85.452,23.84,96,100,1.28,CR,1722569319
218,fiambala,-27.6871,-67.6149,21.14,4,83,5.47,AR,1722569319
219,amora,38.6296,-9.1156,19.9,84,40,5.66,PT,1722569125
220,kalmunai,7.4167,81.8167,30.27,59,100,0.61,LK,1722569320
221,vanimo,-2.6741,141.3028,29.04,76,49,3.8,PG,1722569320
222,anadyr,64.75,177.4833,8.28,75,100,5.0,RU,1722569320
223,kone,-21.0595,164.8658,17.06,85,100,0.61,NC,1722569320
224,kirensk,57.7853,108.1119,15.81,73,98,0.76,RU,1722569320
225,mount pleasant,32.7941,-79.8626,29.44,87,0,3.09,US,1722569320
226,plymouth,41.8334,-70.8328,25.1,86,0,1.54,US,1722569320
227,chui,-33.6971,-53.4616,17.69,73,68,5.89,UY,1722569298
228,susuman,62.7833,148.1667,6.23,66,100,5.33,RU,1722569321
229,caleta de carquin,-11.0925,-77.6267,17.45,86,6,4.17,PE,1722569321
230,neya,58.2972,43.8681,14.28,92,73,1.68,RU,1722569321
231,sodra sandby,56.5667,16.6167,12.72,91,81,1.59,SE,1722569114
232,cabo san lucas,22.8909,-109.9124,30.61,64,20,0.0,MX,1722569322
233,ciudad lazaro cardenas,17.9583,-102.2,28.06,76,96,1.62,MX,1722569254
234,dudinka,69.4058,86.1778,18.62,57,83,1.54,RU,1722569323
235,enewetak,11.3474,162.3373,28.82,75,98,4.57,MH,1722569324
236,vilyuchinsk,52.9306,158.4028,26.15,75,100,3.34,RU,1722569324
237,tvoroyri,61.5556,-6.8111,11.81,99,100,9.93,FO,1722569324
238,at taj,24.2049,23.2857,27.85,24,2,4.99,LY,1722569324
239,ta`u,-14.2336,-169.5144,25.99,66,30,8.68,AS,1722569324
240,klyuchi,52.2667,79.1667,28.36,41,0,3.87,RU,1722569324
241,newman,37.3138,-121.0208,33.99,48,37,2.24,US,1722569324
242,zhaoqing,23.0512,112.4597,32.57,64,6,2.26,CN,1722569324
243,santyoku,37.4406,129.1708,31.77,66,67,1.65,KR,1722569324
244,mount pearl,47.5166,-52.7813,20.53,92,20,8.23,CA,1722569325
245,sertania,-8.0736,-37.2644,16.96,91,2,2.98,BR,1722569325
246,al jawf,29.5,38.75,25.5,38,1,4.34,SA,1722569325
247,nema,57.5067,50.5011,14.53,93,100,1.28,RU,1722569325
248,fort bragg,35.139,-79.006,28.84,85,0,0.0,US,1722569325
249,flagstaff,35.1981,-111.6513,22.23,73,99,3.75,US,1722569325
250,pisco,-13.7,-76.2167,16.12,88,100,4.63,PE,1722569325
251,punta arenas,-53.15,-70.9167,4.06,93,100,3.6,CL,1722569189
252,rabo de peixe,37.8,-25.5833,20.73,83,20,2.57,PT,1722569326
253,westport,41.1415,-73.3579,26.42,81,20,0.45,US,1722569326
254,lepsy,46.235,78.9456,27.74,27,76,1.05,KZ,1722569326
255,buka,40.8108,69.1986,32.26,21,0,2.93,UZ,1722569326
256,mulino,56.2892,42.9201,13.96,98,100,2.53,RU,1722569326
257,chios,38.3678,26.1358,25.92,69,0,0.0,GR,1722569326
258,chhindwara,22.0667,78.9333,22.28,96,100,4.31,IN,1722569326
259,petropavlovsk-kamchatsky,53.0452,158.6483,25.33,50,40,3.0,RU,1722569326
260,nagqu,31.5,92.0,10.74,63,100,3.48,CN,1722569326
261,veracruz,19.3333,-96.6667,20.73,95,83,1.31,MX,1722569328
262,barvinkove,48.9097,37.0205,19.33,39,94,1.18,UA,1722569328
263,isangel,-19.55,169.2667,25.6,70,39,2.29,VU,1722569328
264,christchurch,-43.5333,172.6333,10.79,70,6,4.12,NZ,1722569453
265,akureyri,65.6835,-18.0878,9.96,93,75,2.57,IS,1722569329
266,al bawiti,28.3492,28.8659,26.05,54,0,2.73,EG,1722569330
267,jiuquan,39.7432,98.5174,26.73,31,52,4.09,CN,1722569330
268,kueps oberfranken,50.2,11.2833,19.67,94,100,0.45,DE,1722569330
269,abilene,32.4487,-99.7331,32.48,33,0,5.66,US,1722569164
270,saudarkrokur,65.7461,-19.6394,8.89,97,97,3.26,IS,1722569330
271,pawayan,28.0667,80.1,29.49,75,100,1.11,IN,1722569330
272,soderhamn,61.3037,17.0592,12.2,74,59,3.18,SE,1722569331
273,bonthe,7.5264,-12.505,24.5,91,100,4.93,SL,1722569332
274,abadan,30.3392,48.3043,33.97,22,0,3.09,IR,1722569332
275,goundam,16.4145,-3.6708,28.87,62,100,7.42,ML,1722569332
276,big bear lake,34.2439,-116.9114,21.61,61,0,1.79,US,1722569332
277,omachi,36.5,137.8667,31.9,49,82,2.89,JP,1722569333
278,baidoa,3.1138,43.6498,20.15,88,55,6.07,SO,1722569333
279,malango,-2.9627,119.9001,26.01,66,47,2.15,ID,1722569333
280,tazacorte,28.629,-17.9293,23.42,67,0,6.69,ES,1722569110
281,hirara,24.8,125.2833,32.15,79,40,3.09,JP,1722569335
282,tateyama,34.9833,139.8667,27.18,78,23,0.86,JP,1722569335
283,saint-philippe,-21.3585,55.7679,19.77,74,69,4.71,RE,1722569335
284,ghanzi,-21.5667,21.7833,13.04,31,5,2.33,BW,1722569335
285,emerald,-23.5333,148.1667,21.86,27,0,2.27,AU,1722569335
286,bodaybo,57.8506,114.1933,13.58,92,100,0.62,RU,1722569335
287,fukuecho,32.6881,128.8419,32.2,74,75,4.63,JP,1722569335
288,saint-pierre,-21.3393,55.4781,19.82,60,100,3.6,RE,1722569073
289,rongelap,11.1635,166.8941,28.56,75,24,1.73,MH,1722569336
290,gadani,25.1185,66.7299,29.12,88,100,7.42,PK,1722569336
291,las terrenas,19.311,-69.5428,25.36,87,97,1.17,DO,1722569336
292,pelabuhanratu,-6.9875,106.5514,29.35,71,70,1.03,ID,1722569336
293,beitbridge,-22.2167,30.0,13.99,82,0,3.69,ZW,1722569336
294,luderitz,-26.6481,15.1594,14.24,36,0,4.1,NA,1722569336
295,huilong,31.8111,121.655,35.13,56,0,2.71,CN,1722569336
296,asyut,27.181,31.1837,30.23,27,0,2.5,EG,1722569336
297,igarka,67.4667,86.5833,16.61,74,100,3.89,RU,1722569337
298,kathleen,28.1209,-82.0231,25.41,96,0,2.06,US,1722569041
299,college,64.8569,-147.8028,13.18,83,100,3.09,US,1722569337
300,mermoz boabab,14.7065,-17.4758,26.88,69,75,4.12,SN,1722569337
301,baganga,7.5739,126.56,30.02,63,100,2.48,PH,1722569337
302,cove,7.221,2.3402,22.3,94,95,2.05,BJ,1722569337
303,karratha,-20.7377,116.8463,22.92,58,94,7.8,AU,1722569337
304,sao gabriel da cachoeira,-0.1303,-67.0892,23.03,89,82,0.56,BR,1722569337
305,timimoun,29.2639,0.231,28.21,16,0,4.63,DZ,1722569337
306,shuangjiang,26.1547,109.7138,28.85,65,68,4.59,CN,1722569338
307,tsaratanana,-16.7833,47.65,15.34,82,4,4.1,MG,1722569338
308,kegen,43.0197,79.2203,23.49,29,37,2.0,KZ,1722569338
309,wynyard,-41.0,145.7167,12.33,79,85,3.58,AU,1722569338
310,chibougamau,49.9168,-74.3659,20.79,83,20,5.14,CA,1722569338
311,usinsk,65.9939,57.5281,18.43,74,41,5.85,RU,1722569338
312,tidjikja,18.5564,-11.4271,31.43,37,96,7.05,MR,1722569338
313,faya-largeau,17.9257,19.1043,29.24,58,98,2.35,TD,1722569338
314,kapuskasing,49.4169,-82.4331,21.05,94,100,4.12,CA,1722569338
315,mahina,-17.5065,-149.489,24.87,57,20,2.06,PF,1722569339
316,portland,45.5234,-122.6762,33.69,51,1,2.68,US,1722569209
317,neftcala,39.3742,49.2472,25.79,68,0,2.05,AZ,1722569339
318,uxbridge,42.0773,-71.6295,24.92,88,0,2.25,US,1722569091
319,la grande,45.3246,-118.0877,30.01,34,3,2.06,US,1722569193
320,farafangana,-22.8167,47.8333,20.15,77,96,2.93,MG,1722569340
321,tynda,55.1667,124.7167,19.22,44,33,0.87,RU,1722569340
322,banda aceh,5.5577,95.3222,29.64,67,100,1.2,ID,1722569341
323,hadibu,12.65,54.0333,25.42,83,91,10.39,YE,1722569341
324,langzhong,31.5504,105.9938,31.3,67,93,2.41,CN,1722569341
325,aasiaat,68.7098,-52.8699,0.93,86,70,1.7,GL,1722569341
326,afaahiti,-17.75,-149.2833,23.93,65,8,5.96,PF,1722569341
327,port alfred,-33.5906,26.891,12.32,92,94,0.89,ZA,1722569341
328,sola,-13.8833,167.55,28.37,79,75,2.57,VU,1722569341
329,ad-damazin,11.7891,34.3592,21.85,85,100,2.79,SD,1722569341
330,rio grande,-32.035,-52.0986,16.08,87,15,7.01,BR,1722569177
331,cabedelo,-6.9811,-34.8339,22.37,82,32,6.8,BR,1722569332
332,fisterra,42.9049,-9.2629,15.97,92,0,5.77,ES,1722569342
333,palmer,42.1584,-72.3287,24.4,80,20,0.0,US,1722569342
334,papao,-17.75,-149.55,24.82,66,1,6.62,PF,1722569342
335,santa ana de yacuma,-13.75,-65.4333,26.05,34,0,3.27,BO,1722569342
336,manakara,-22.1333,48.0167,19.99,83,98,2.18,MG,1722569342
337,twon-brass,4.3151,6.2418,25.38,82,100,6.38,NG,1722569342
338,tobelo,1.7284,128.0095,29.05,71,96,2.28,ID,1722569342
339,nerekhta,57.4588,40.5747,14.94,95,100,2.56,RU,1722569343
340,novyy turtkul',41.55,61.0167,26.95,29,0,6.35,UZ,1722569343
341,charters towers,-20.1,146.2667,23.32,35,0,4.8,AU,1722569343
342,shanyang,26.6702,119.2051,31.8,50,39,2.11,CN,1722569343
343,vangaindrano,-23.35,47.6,18.4,78,94,2.07,MG,1722569343
344,porto novo,6.4965,2.6036,23.32,91,96,2.56,BJ,1722569343
345,rajanpur,29.1035,70.325,29.36,77,100,6.89,PK,1722569343
346,hasaki,35.7333,140.8333,31.27,77,16,4.33,JP,1722569343
347,itambe,-15.245,-40.6244,18.47,96,98,1.42,BR,1722569343
348,tommot,58.9564,126.2925,18.37,42,44,1.54,RU,1722569344
349,ust'-kulom,61.6864,53.6902,14.66,95,78,2.27,RU,1722569344
350,ataq,14.5377,46.8319,28.73,40,100,0.88,YE,1722569344
351,horta,38.5333,-28.6333,23.41,77,12,2.51,PT,1722569344
352,upington,-28.4478,21.2561,4.21,30,0,3.09,ZA,1722569344
353,northam,51.0333,-4.2167,16.48,92,25,2.63,GB,1722569344
354,bush,29.1482,31.1273,27.67,56,0,3.19,EG,1722569344
355,egilsstadir,65.2653,-14.3948,7.95,93,100,2.06,IS,1722569344
356,highfields,-27.4518,151.9463,16.31,36,0,2.89,AU,1722569344
357,al burayqah,30.4062,19.5739,26.02,67,0,3.96,LY,1722569345
358,jiwani,25.05,61.7417,27.93,86,87,3.61,PK,1722569345
359,kayenta,36.7278,-110.2546,29.18,25,81,5.09,US,1722569346
360,san andres,12.5847,-81.7006,29.01,84,20,2.57,CO,1722569346
361,plettenberg bay,-34.0527,23.3716,9.46,76,12,2.88,ZA,1722569346
362,hillarys,-31.807,115.7404,15.17,59,100,3.58,AU,1722569346
363,bog walk,18.1021,-77.0054,27.45,96,88,0.96,JM,1722569347
364,barcelos,41.5388,-8.6151,18.16,97,3,0.91,PT,1722569347
365,dalbandin,28.8947,64.4101,32.49,19,98,5.42,PK,1722569053
366,ivins,37.1686,-113.6794,37.62,18,97,1.79,US,1722569347
367,tashla,51.7716,52.7427,20.45,53,89,3.68,RU,1722569347
368,funafuti,-8.5243,179.1942,30.0,79,40,5.66,TV,1722569347
369,corner brook,48.9667,-57.9484,22.09,97,100,2.0,CA,1722569174
370,la ronge,55.1001,-105.2842,19.14,48,0,1.03,CA,1722569347
371,sretensk,52.2453,117.7093,26.79,14,8,2.91,RU,1722569347
372,qarah bagh,34.9402,61.7759,24.77,46,0,9.34,AF,1722569347
373,san antonio de pale,-1.4014,5.6325,22.42,78,72,5.67,GQ,1722569348
374,minab,27.1467,57.0801,34.08,56,18,0.95,IR,1722569348
375,riverton,40.5219,-111.9391,29.86,25,0,1.34,US,1722569256
376,singaraja,-8.112,115.0882,29.01,70,28,1.73,ID,1722569348
377,mount isa,-20.7333,139.5,25.87,27,0,3.09,AU,1722569348
378,gereida,11.2811,25.1414,23.38,86,92,2.38,SD,1722569348
379,reggane,26.7158,0.1714,34.9,13,9,8.52,DZ,1722569348
380,ocean shores,46.9737,-124.1563,21.0,86,0,5.14,US,1722569320
381,nova sintra,14.8667,-24.7167,24.6,78,87,7.44,CV,1722569348
382,mayya,61.7333,130.2811,15.62,33,7,3.18,RU,1722569349
383,rotonda west,26.8837,-82.2901,27.24,93,20,2.06,US,1722569349
384,west hattiesburg,31.3191,-89.3751,28.81,92,0,0.0,US,1722569349
385,ghadamis,30.1337,9.5007,29.23,23,0,3.17,LY,1722569349
386,ostersund,63.1792,14.6357,9.25,93,20,6.69,SE,1722569349
387,coquimbo,-29.9533,-71.3436,12.85,83,100,1.54,CL,1722569132
388,mulayjah,27.271,48.4242,33.58,16,60,4.56,SA,1722569349
389,lihue,21.9789,-159.3672,26.77,67,0,4.63,US,1722569349
390,rovaniemi,66.5,25.7167,13.67,94,0,3.09,FI,1722569266
391,lhokseumawe,5.1801,97.1507,29.19,67,100,2.06,ID,1722569350
392,kwang binh,17.4833,106.6,26.33,82,100,2.37,VN,1722569350
393,bariadi,-2.8,33.9833,16.87,56,10,3.49,TZ,1722569350
394,fenghuang,27.9356,109.5996,29.2,70,66,3.13,CN,1722569350
395,port-gentil,-0.7193,8.7815,23.53,77,29,5.82,GA,1722569350
396,lagos,6.5833,3.75,24.18,95,100,1.75,NG,1722569118
397,mahibadhoo,3.7833,72.9667,28.52,71,100,3.24,MV,1722569350
398,arteche,12.2645,125.4048,30.36,69,81,0.33,PH,1722569350
399,'ain benian,36.8028,2.9219,27.03,72,6,1.64,DZ,1722569351
400,katsuura,35.1333,140.3,26.31,83,23,5.45,JP,1722569351
401,durango,24.8333,-104.8333,22.42,37,39,4.89,MX,1722569351
402,puerto armuelles,8.2833,-82.8667,23.38,92,100,0.45,PA,1722569351
403,prilep,41.3464,21.5544,14.67,56,0,0.73,MK,1722569250
404,hastings,50.8552,0.5729,18.49,51,4,1.7,GB,1722569346
405,ayvacik,39.6011,26.4047,17.02,65,0,2.0,TR,1722569351
406,novoul'yanovsk,54.1496,48.3891,15.75,77,3,4.01,RU,1722569351
407,mormugao,15.4,73.8,26.91,85,100,8.65,IN,1722569351
408,i-n-salah,27.1935,2.4607,32.35,16,0,6.8,DZ,1722569352
409,ponnani,10.767,75.9252,24.62,85,100,2.84,IN,1722569352
410,sylvan lake,52.3168,-114.0853,20.76,53,0,2.57,CA,1722569352
411,flin flon,54.7682,-101.865,17.39,56,1,1.43,CA,1722569352
412,lata,40.1629,-8.3327,18.93,89,98,1.61,PT,1722569352
413,kananga,-5.8958,22.4178,20.04,27,21,1.31,CD,1722569352
414,diplo,24.4667,69.584,28.83,80,100,9.1,PK,1722569352
415,arkhangel'sk,64.5401,40.5433,15.06,100,100,2.0,RU,1722569352
416,argo,37.6333,22.7333,22.1,45,0,2.06,GR,1722569352
417,okhotsk,59.3833,143.3,15.95,68,38,2.99,RU,1722569353
418,el granada,37.5027,-122.4694,22.05,82,100,0.89,US,1722569353
419,kandi,11.1342,2.9386,22.61,96,98,2.4,BJ,1722569353
420,mandalgovi,45.7625,106.2708,20.35,63,30,0.82,MN,1722569244
421,new ulm,44.3125,-94.4605,22.21,92,0,0.0,US,1722569353
422,sydney,-33.8679,151.2073,16.93,73,40,5.66,AU,1722569424
423,kilindoni,-7.9139,39.6668,24.71,74,12,7.2,TZ,1722569353
424,sikar,27.6167,75.15,26.94,81,100,2.3,IN,1722569353
425,al hazm,16.1641,44.7769,25.38,58,100,8.42,YE,1722569353
426,akankpa,5.1264,8.1898,22.1,97,97,0.63,NG,1722569354
427,bodo,67.28,14.405,15.02,84,100,1.54,NO,1722569354
428,fale old settlement,-9.3852,-171.2468,27.69,68,0,7.23,TK,1722569354
429,antsiranana,-12.2787,49.2917,21.42,64,20,6.17,MG,1722569354
430,nacaome,13.5361,-87.4875,25.63,76,100,0.64,HN,1722569354
431,byron bay,-28.65,153.6167,19.28,59,42,6.46,AU,1722569354
432,merizo village,13.2658,144.6691,30.32,87,100,8.16,GU,1722569354
433,sandnessjoen,66.0217,12.6316,13.29,85,75,6.49,NO,1722569354
434,keflavik,64.0049,-22.5624,9.24,93,75,3.6,IS,1722569354
435,rio gallegos,-51.6226,-69.2181,2.03,100,100,4.12,AR,1722569183
436,ceerigaabo,10.6162,47.368,17.66,72,84,8.1,SO,1722569356
437,ingeniero jacobacci,-41.3427,-69.5448,8.81,58,100,12.03,AR,1722569356
438,parnu,58.3859,24.4971,16.05,82,100,3.09,EE,1722569356
439,aras-asan,8.8908,126.3033,29.68,65,100,0.87,PH,1722569356
440,pimentel,-6.8367,-79.9342,17.16,88,100,5.14,PE,1722569356
441,sierpc,52.8568,19.6691,11.08,81,92,2.5,PL,1722569356
442,ratnagiri,16.9833,73.3,26.71,86,100,6.75,IN,1722569097
443,khandyga,62.6667,135.6,12.86,59,68,3.45,RU,1722569356
444,dakhla,23.6848,-15.958,19.72,92,17,11.71,EH,1722569357
445,mont-de-marsan,44.0,-0.6667,19.87,100,100,2.06,FR,1722569357
446,al bardiyah,31.7561,25.0865,23.53,72,0,3.85,LY,1722569357
447,shahpur,16.7,76.8333,25.21,79,100,6.99,IN,1722569357
448,puerto la cruz,10.2167,-64.6167,26.16,82,100,2.9,VE,1722569357
449,margate,51.3813,1.3862,16.5,91,35,1.85,GB,1722569357
450,taltal,-25.4,-70.4833,13.62,84,40,1.77,CL,1722569357
451,russellville,35.2784,-93.1338,31.19,72,33,1.65,US,1722569120
452,port hedland,-20.3167,118.5667,22.03,68,100,7.72,AU,1722569538
453,sarai,53.7458,41.0213,13.43,92,100,3.78,RU,1722569358
454,kapa'a,22.0752,-159.319,27.18,68,0,4.63,US,1722569359
455,ust'-ilimsk,58.0006,102.6619,20.0,48,36,1.33,RU,1722569359
456,polyarnyye zori,67.3661,32.4981,13.87,92,100,3.52,RU,1722569359
457,pasni,25.2631,63.471,27.84,86,100,3.33,PK,1722569359
458,harstad,68.799,16.5293,13.78,98,100,8.94,NO,1722569360
459,lys'va,58.1086,57.8053,15.07,91,36,1.8,RU,1722569314
460,smithers,54.7804,-127.1743,21.18,37,20,4.12,CA,1722569361
461,stamford,41.0534,-73.5387,27.39,81,0,0.0,US,1722569244
462,leava,-14.3,-178.1667,26.67,74,47,7.14,WF,1722569361
463,uvel'skiy,54.4446,61.3574,17.07,81,7,1.7,RU,1722569361
464,bac lieu,9.285,105.7244,30.21,66,94,2.58,VN,1722569361
465,miramichi,47.0043,-65.4654,20.29,97,100,2.1,CA,1722569361
466,thohoyandou,-22.9456,30.485,11.38,93,0,1.2,ZA,1722569361
467,san patricio,28.017,-97.5169,29.94,76,19,4.25,US,1722569361
468,yeppoon,-23.1333,150.7333,21.88,54,0,4.4,AU,1722569362
469,urangan,-25.3,152.9,18.8,45,0,3.64,AU,1722569362
470,chonchi,-42.6128,-73.8092,8.56,95,100,2.66,CL,1722569362
471,al kharijah,25.4514,30.5464,30.06,24,0,1.65,EG,1722569363
472,santa cruz de tenerife,28.4682,-16.2546,24.84,90,75,10.8,ES,1722569363
473,kuragino,53.8975,92.6725,22.49,69,9,1.14,RU,1722569363
474,caucaia,-3.7361,-38.6531,26.69,69,0,5.14,BR,1722569363
475,saint-leu,-21.15,55.2833,19.48,79,64,5.32,RE,1722569364
476,paita,-5.0892,-81.1144,17.96,85,9,4.45,PE,1722569364
477,cidade velha,14.9167,-23.6167,24.26,78,20,5.14,CV,1722569364
478,aqaba,29.5267,35.0078,29.92,42,0,4.12,JO,1722569364
479,hilo,19.7297,-155.09,27.85,76,0,4.12,US,1722569128
480,naha,26.2125,127.6811,33.15,74,40,5.14,JP,1722569364
481,tharad,24.3961,71.6267,28.3,82,100,7.81,IN,1722569364
482,lincheng,19.9078,109.6858,32.11,60,100,3.31,CN,1722569364
483,nantucket,41.2835,-70.0995,25.03,85,0,6.85,US,1722569364
484,saint-francois,46.4154,3.9054,18.14,100,0,2.06,FR,1722569365
485,toamasina,-18.1667,49.3833,17.0,94,75,2.06,MG,1722569365
486,thames,-37.1333,175.5333,11.97,72,100,3.47,NZ,1722569365
487,pandasan,7.2838,125.8535,31.99,68,97,2.0,PH,1722569365
488,hemsby,52.6971,1.6918,15.77,92,39,2.45,GB,1722569365
489,ufa,54.775,56.0375,14.65,93,99,2.91,RU,1722569365
490,happy valley-goose bay,53.3168,-60.3315,14.17,82,100,3.09,CA,1722569365
491,manggar,-2.8833,108.2667,29.77,64,34,5.63,ID,1722569365
492,santa terezinha,-29.9002,-50.0904,15.64,95,6,7.05,BR,1722569366
493,sabha,27.0377,14.4283,28.25,24,0,4.12,LY,1722569366
494,vershino-darasunskiy,52.35,115.5167,22.84,27,43,2.86,RU,1722569366
495,calama,-22.4667,-68.9333,6.27,26,0,2.06,CL,1722569366
496,rikaze,29.25,88.8833,16.69,39,100,1.36,CN,1722569366
497,mazidagi,37.4775,40.4881,18.5,27,0,3.31,TR,1722569366
498,peace river,56.2501,-117.286,21.17,45,0,3.09,CA,1722569330
499,arkalyk,50.2486,66.9114,25.73,42,92,6.22,KZ,1722569367
500,bikenibeu village,1.3673,173.1241,30.98,70,20,2.57,KI,1722569367
501,muroto-misakicho,33.2833,134.15,28.98,75,0,1.88,JP,1722569367
502,cole harbour,44.6724,-63.4751,19.66,97,96,1.54,CA,1722569367
503,sao tome,0.3365,6.7273,22.75,82,99,3.79,ST,1722569367
504,songjianghe,42.1859,127.479,25.56,76,100,3.0,CN,1722569368
505,qui nhon,13.7667,109.2333,33.16,52,100,1.14,VN,1722569368
506,puerto colombia,10.9878,-74.9547,24.05,86,87,2.67,CO,1722569368
507,usogorsk,63.4106,48.6872,15.53,88,100,2.55,RU,1722569368
508,opochka,56.7105,28.6617,12.14,98,87,2.52,RU,1722569368
509,patterson,37.4716,-121.1297,32.77,48,16,5.24,US,1722569340
510,baiao,-2.7906,-49.6717,24.82,76,51,0.45,BR,1722569368
511,saint-sebastien-sur-loire,47.2077,-1.5033,18.06,77,75,2.06,FR,1722569369
512,shenjiamen,29.9576,122.298,30.67,77,0,2.22,CN,1722569369
513,sibolga,1.7427,98.7792,30.42,58,72,1.06,ID,1722569369
514,kuqa,41.7278,82.9364,30.54,31,0,4.7,CN,1722569369
515,baharly,38.4362,57.4316,29.29,59,27,2.91,TM,1722569369
516,anzio,41.4853,12.6179,26.36,73,0,1.9,IT,1722569369
517,mitu,1.1983,-70.1733,22.33,97,100,1.05,CO,1722569369
518,new romney,50.986,0.9412,17.84,93,75,1.03,GB,1722569369
519,champerico,14.3,-91.9167,27.36,81,82,1.26,GT,1722569369
520,yambio,4.5721,28.3955,19.25,83,100,0.76,SS,1722569370
521,revda,56.801,59.9303,15.09,92,100,2.19,RU,1722569370
522,sungailiat,-1.85,106.1333,30.21,64,39,5.29,ID,1722569370
523,kuta,-8.7233,115.1723,28.97,84,20,4.12,ID,1722569370
524,severo-yeniseyskiy,60.3725,93.0408,14.65,90,99,1.34,RU,1722569370
525,bay harbor,30.1471,-85.6146,29.97,86,0,0.45,US,1722569370
526,mossel bay,-34.1831,22.146,8.96,82,56,3.11,ZA,1722569370
527,pitimbu,-7.4706,-34.8086,22.33,80,13,7.06,BR,1722569370
528,santa elena de uairen,4.6167,-61.1333,19.96,86,91,0.82,VE,1722569370
529,salalah,17.0151,54.0924,24.05,100,100,2.57,OM,1722569371
530,noosa heads,-26.3833,153.15,20.74,50,0,5.03,AU,1722569371
531,big rapids,43.6981,-85.4837,24.04,87,0,0.0,US,1722569121
532,gros morne,19.6667,-72.6833,23.85,89,100,2.38,HT,1722569371
533,kurumkan,54.3,110.3,19.56,85,100,1.54,RU,1722569371
534,kerikeri,-35.2268,173.9474,13.84,91,100,5.36,NZ,1722569371
535,grand baie,-20.0182,57.5802,19.26,86,3,3.07,MU,1722569371
536,vilcun,-38.65,-72.2333,8.41,96,100,3.88,CL,1722569371
537,aylmer,42.7668,-80.983,25.42,88,34,0.72,CA,1722569371
538,narvik,68.4384,17.4272,13.78,95,100,1.74,NO,1722569372
539,tobol'sk,58.2,68.2667,19.54,87,19,3.3,RU,1722569372
540,hilton head island,32.2163,-80.7526,29.99,74,0,4.63,US,1722569247
541,vilyuysk,63.7553,121.6247,18.48,37,0,1.41,RU,1722569372
542,ponta delgada,37.7333,-25.6667,21.4,83,20,2.57,PT,1722569372
543,athens,37.9795,23.7162,26.48,39,0,2.57,GR,1722569158
544,yaren,-0.5472,166.916,28.59,70,5,1.72,NR,1722569372
545,dingtao,35.0683,115.5625,32.04,69,0,4.34,CN,1722569372
546,raja,8.4596,25.678,20.51,92,92,1.44,SS,1722569116
547,green river,41.5286,-109.4662,25.55,25,0,2.91,US,1722569373
548,tsiombe,-25.3,45.4833,17.15,76,69,0.51,MG,1722569374
549,grand rapids,42.9634,-85.6681,24.21,93,40,1.54,US,1722569124
550,north battleford,52.7834,-108.2847,18.05,77,0,4.63,CA,1722569116
551,balabac,7.9868,117.0645,24.96,91,100,2.48,PH,1722569374
552,choyr,46.3611,108.3611,17.47,84,89,5.75,MN,1722569374
553,bam,29.106,58.357,34.2,12,9,2.3,IR,1722569374
554,san jose del guaviare,2.5729,-72.6459,21.62,92,99,1.07,CO,1722569375
555,tangalle,6.024,80.7911,29.09,75,100,5.63,LK,1722569375
556,zahedan,29.4963,60.8629,29.95,17,9,2.06,IR,1722569375
557,rumphi,-11.0186,33.8575,11.84,68,0,1.93,MW,1722569375
558,macau,22.2006,113.5461,30.89,79,40,5.14,MO,1722569375
559,boali,4.8005,18.1275,22.08,75,66,0.82,CF,1722569375
560,north mackay,-21.1167,149.1833,24.73,63,0,6.36,AU,1722569375
561,wanganui,-39.9333,175.05,10.44,69,86,4.01,NZ,1722569375
562,laguna,38.421,-121.4238,34.86,29,0,3.09,US,1722569375
563,rawson,-43.3002,-65.1023,13.83,56,100,7.03,AR,1722569376
564,galveston,29.3669,-94.9669,29.54,86,0,4.63,US,1722569377
565,haiku-pauwela,20.9219,-156.3051,25.68,76,34,4.02,US,1722569377
566,deqen,29.9618,90.7188,13.47,65,99,2.5,CN,1722569377
567,formosa do rio preto,-11.0483,-45.1931,19.73,43,0,1.58,BR,1722569377
568,kimry,56.8667,37.35,14.38,96,100,2.47,RU,1722569377
569,mlalo,-4.9333,38.9333,19.63,89,27,2.5,TZ,1722569377
570,long beach,33.767,-118.1892,25.09,78,0,4.12,US,1722569249
571,simenqian,27.4872,110.8861,30.32,67,98,2.9,CN,1722569379
572,sabang,5.8933,95.3214,28.28,77,100,3.35,ID,1722569379
573,ribeira brava,32.65,-17.0667,22.62,83,0,0.51,PT,1722569379
574,sparti,37.0733,22.4297,24.42,47,0,1.83,GR,1722569379
575,punta cana,18.5818,-68.4043,24.87,94,75,2.06,DO,1722569316
